name,accepts_ebt,distributes_health_bucks,open_year_round,address,borough,latitude,longitude,point_geometry_wgs84
Heritage Farm Stand (Compost Demonstration Site),Yes,true,false,1000 Richmond Terrace (compost demonstration site),Staten Island,40.645075,-74.104753,\x00\x00\x00\x00\x00\x00\x00\x00\x00\x00\x00\x00\x01\x00\x00\x00\x1BJ\xEDE\xB4\x86R\xC0\xCD;N\xD1\x91RD@
Greenmarket at the Oculus,Yes,true,false,Church at Fulton St.,Manhattan,40.711466,-74.010662,\x00\x00\x00\x00\x00\x00\x00\x00\x00\x00\x00\x00\x01\x00\x00\x00\xD6S\xAB\xAF\xAE\x80R\xC0\xA7\x1BaQ\x11[D@
NYP Youth Market - Audobon,No,false,false,21 Audobon Ave.,Manhattan,40.839441,-73.939118,\x00\x00\x00\x00\x00\x00\x00\x00\x00\x00\x00\x00\x01\x00\x00\x00oEb\x82\x1A|R\xC0\xF4\xF5|\xCDrkD@
57th Street Greenmarket,Yes,true,false,W. 57th St. & 10th Ave.,Manhattan,40.769117,-73.988559,\x00\x00\x00\x00\x00\x00\x00\x00\x00\x00\x00\x00\x01\x00\x00\x00\xA7\xCA\xF7\x8CD\x7FR\xC0\x1B\xE6\x04mrbD@
Market in the Heights at 125,Yes,true,false,163 West 125th St.,Manhattan,40.809344,-73.947722,"\x00\x00\x00\x00\x00\x00\x00\x00\x00\x00\x00\x00\x01\x00\x00\x00\xC8\xEC,z\xA7|R\xC0_\x9B\x8D\x95\x98gD@"
Dag Hammarskjold Greenmarket,Yes,true,true,47th St. & 2nd Ave.,Manhattan,40.752122,-73.968154,\x00\x00\x00\x00\x00\x00\x00\x00\x00\x00\x00\x00\x01\x00\x00\x00v\xDF1<\xF6}R\xC0\x11M\xA0\x88E`D@
New Roots Farm Stand,Yes,true,false,670 Grand Concourse,Bronx,40.821447,-73.925492,"\x00\x00\x00\x00\x00\x00\x00\x00\x00\x00\x00\x00\x01\x00\x00\x00k-\xCCB;{R\xC0\xDA2\xE0,%iD@"
Harvest Home North Central Bronx Farmers Market,Yes,true,false,Mosholu Parkway & Jerome Ave.,Bronx,40.8797,-73.884661,\x00\x00\x00\x00\x00\x00\x00\x00\x00\x00\x00\x00\x01\x00\x00\x00\xFC\xC2+I\x9ExR\xC0E%u\x02\x9ApD@
Parkchester Greenmarket,Yes,true,false,Westchester Ave. & White Plains Road,Bronx,40.833279,-73.862833,\x00\x00\x00\x00\x00\x00\x00\x00\x00\x00\x00\x00\x01\x00\x00\x006:\xE7\xA78wR\xC0\xC6\xB8\xE2\xE2\xA8jD@
Harvest Home Jacobi Hospital Farmers Market,Yes,true,false,1400 Pelham Parkway,Bronx,40.8574,-73.847079,\x00\x00\x00\x00\x00\x00\x00\x00\x00\x00\x00\x00\x01\x00\x00\x008\x88\xD6\x8A6vR\xC0\x91\xCB\x7FH\xBFmD@
Morning Glory Market at the New York Botanical Gardens,Yes,true,false,2900 Southern Blvd.,Bronx,40.865684,-73.883312,\x00\x00\x00\x00\x00\x00\x00\x00\x00\x00\x00\x00\x01\x00\x00\x00\x85\x0A\x0E/\x88xR\xC0\xD0U\xBA\xBB\xCEnD@
Fresh Vibes Market at Medgar Evers College,Yes,true,false,1630 Bedford Ave.,Brooklyn,40.666799,-73.956679,\x00\x00\x00\x00\x00\x00\x00\x00\x00\x00\x00\x00\x01\x00\x00\x00Gq\x8E::}R\xC0\xB4\x00m\xABYUD@
Kensington Farmstand,Yes,true,false,McDonald Ave. & Albermarle Road,Brooklyn,40.64511,-73.979882,\x00\x00\x00\x00\x00\x00\x00\x00\x00\x00\x00\x00\x01\x00\x00\x00\x1A\xFC\xFDb\xB6~R\xC0J)\xE8\xF6\x92RD@
RiseBoro Farmers Market at Hopefield,Yes,true,false,Knickerbocker Ave. bet Menahan St. & Grove St.,Brooklyn,40.69768,-73.916366,\x00\x00\x00\x00\x00\x00\x00\x00\x00\x00\x00\x00\x01\x00\x00\x00\xA5J\x94\xBD\xA5zR\xC0c\x89\x07\x94MYD@
Seeds in the Middle Brownsville Farm Stand,Yes,true,false,104 Sutter Ave. (IS 392),Brooklyn,40.665965,-73.918107,\x00\x00\x00\x00\x00\x00\x00\x00\x00\x00\x00\x00\x01\x00\x00\x00\xA3\xCE\xDCC\xC2zR\xC0\xEB\xA3SW>UD@
Ditmars Park Farmstand,Yes,true,false,Steinway St. bet Ditmars Blvd. & 23rd Ave.,Queens,40.772854,-73.906061,\x00\x00\x00\x00\x00\x00\x00\x00\x00\x00\x00\x00\x01\x00\x00\x00\x96\xCBF\xE7\xFCyR\xC0\x9BJ?\xE1\xECbD@
Far Rock Farm Stand,Yes,true,false,45-55 Beach Channel Dr.,Queens,40.595572,-73.777001,\x00\x00\x00\x00\x00\x00\x00\x00\x00\x00\x00\x00\x01\x00\x00\x00e\xFDfb\xBAqR\xC0\xE54\x0B\xB4;LD@
Rockaway Youth Task Force Youth Market,Yes,false,false,310 Beach 58th St.,Queens,40.594492,-73.788077,\x00\x00\x00\x00\x00\x00\x00\x00\x00\x00\x00\x00\x01\x00\x00\x00\xB5n\x83\xDAorR\xC0\xE8\xDDXP\x18LD@
Elmhurst Hospital Greenmarket,Yes,true,false,41st Ave. bet 80th & 81st Sts.,Queens,40.745794,-73.885489,\x00\x00\x00\x00\x00\x00\x00\x00\x00\x00\x00\x00\x01\x00\x00\x00\xF0\xFD\x0D\xDA\xABxR\xC0\xC7\xC6\x83-v_D@
Edgemere Farm Market,Yes,true,false,385 Beach 45th St.,Queens,40.595255,-73.776524,\x00\x00\x00\x00\x00\x00\x00\x00\x00\x00\x00\x00\x01\x00\x00\x00\xC8#\xB8\x91\xB2qR\xC0\xE7\xE3\xDAP1LD@
Queens County Farm Museum Farm Stand,Yes,true,false,73-50 Little Neck Parkway,Queens,40.748163,-73.719431,\x00\x00\x00\x00\x00\x00\x00\x00\x00\x00\x00\x00\x01\x00\x00\x00\xA1.R(\x0BnR\xC0\xE3\x89 \xCE\xC3_D@
Astor Place Greenmarket,Yes,true,false,E. 8th St. & Lafayette,Manhattan,40.72982,-73.991023,\x00\x00\x00\x00\x00\x00\x00\x00\x00\x00\x00\x00\x01\x00\x00\x00]\xA5\xBB\xEBl\x7FR\xC0\xBD\xFB\xE3\xBDj]D@
Tribeca Greenmarket,Yes,true,false,Greenwich & Chambers streets,Manhattan,40.716303,-74.010966,\x00\x00\x00\x00\x00\x00\x00\x00\x00\x00\x00\x00\x01\x00\x00\x00\x8C\xD7\xBC\xAA\xB3\x80R\xC0i\x83\x13\xD1\xAF[D@
Fort Washington Greenmarket,Yes,true,false,168th St. & Ft. Washington Ave.,Manhattan,40.842296,-73.942027,\x00\x00\x00\x00\x00\x00\x00\x00\x00\x00\x00\x00\x01\x00\x00\x00\xBC<\x9D+J|R\xC0\x9D\xC6\xF6Z\xD0kD@
97th Street Greenmarket,Yes,true,true,97th St. bet Columbus & Amsterdam Aves,Manhattan,40.794003,-73.96807,\x00\x00\x00\x00\x00\x00\x00\x00\x00\x00\x00\x00\x01\x00\x00\x00G\x8F\xDF\xDB\xF4}R\xC0\x82\xF6\xEA\xE3\xA1eD@
Norwood Farmstand,Yes,true,true,E. Gun Hill Rd. & Dekalb Ave. (SE corner),Bronx,40.88222,-73.880458,\x00\x00\x00\x00\x00\x00\x00\x00\x00\x00\x00\x00\x01\x00\x00\x00\x1A\xE0\x82lYxR\xC0E\xF0\xBF\x95\xECpD@
Harvest Home Co-op City Farm Stand,Yes,true,false,Asch Loop & Aldrich Ave.,Bronx,40.8702,-73.830963,\x00\x00\x00\x00\x00\x00\x00\x00\x00\x00\x00\x00\x01\x00\x00\x00\xE9Ko\x7F.uR\xC0T}\xAE\xB6boD@
NYP Youth Market - Brooklyn,No,false,false,249 7th Ave.,Brooklyn,40.669218,-73.979629,\x00\x00\x00\x00\x00\x00\x00\x00\x00\x00\x00\x00\x01\x00\x00\x00\xA5M\xD5=\xB2~R\xC0\x7F\xF2w\xEF\xA8UD@
Isabahlia Farmers Market,Yes,true,false,514 Rockaway Ave. (ISO Student Farm),Brooklyn,40.667554,-73.910207,\x00\x00\x00\x00\x00\x00\x00\x00\x00\x00\x00\x00\x01\x00\x00\x00\xC7e\xDC\xD4@zR\xC02(\xD3hrUD@
Harvest Home Kings County Hospital Farmers Market,Yes,true,false,Clarkson Ave. bet E. 37th & 38th Sts.,Brooklyn,40.6558,-73.943355,\x00\x00\x00\x00\x00\x00\x00\x00\x00\x00\x00\x00\x01\x00\x00\x00(a\xA6\xED_|R\xC0\xC3[ A\xF1SD@
Fresh Vibes Market at the Bureau of Brooklyn Neighborhood Health,Yes,true,false,485 Throop Ave.,Brooklyn,40.685547,-73.941282,\x00\x00\x00\x00\x00\x00\x00\x00\x00\x00\x00\x00\x01\x00\x00\x00\x10\x94\xDB\xF6=|R\xC0xo\x0C\x01\xC0WD@
Bay Ridge Greenmarket,Yes,true,false,3rd Ave. & 95th St.,Brooklyn,40.61781,-74.03338,\x00\x00\x00\x00\x00\x00\x00\x00\x00\x00\x00\x00\x01\x00\x00\x00\xCA\x15\xDE\xE5\x22\x82R\xC0&\x92\xE8e\x14OD@
Sunset Park Farmstand,Yes,true,false,7th Ave. and 44th St.,Brooklyn,40.645841,-74.002402,\x00\x00\x00\x00\x00\x00\x00\x00\x00\x00\x00\x00\x01\x00\x00\x00{\xDC\xB7Z\x27\x80R\xC0;\xB5\xFA\xEA\xAARD@
Boro Park Greenmarket,Yes,true,false,14th Ave. bet 49th & 50th Sts.,Brooklyn,40.633285,-73.990548,\x00\x00\x00\x00\x00\x00\x00\x00\x00\x00\x00\x00\x01\x00\x00\x00\x91Gp#e\x7FR\xC0\x11\x06\x9E{\x0FQD@
Red Hook Farm Stand,Yes,true,false,560 Columbia St.,Brooklyn,40.672524,-74.00871,\x00\x00\x00\x00\x00\x00\x00\x00\x00\x00\x00\x00\x01\x00\x00\x00{Ic\xB4\x8E\x80R\xC07\xE34D\x15VD@
QueensVillage Farmers Market,TBD,false,false,QueensVillage Long Island Railroad Commuter Parking Lot - Amboy Ln. & Springfield Blvd.,Queens,40.717978,-73.735337,\x00\x00\x00\x00\x00\x00\x00\x00\x00\x00\x00\x00\x01\x00\x00\x00{\xA2\xEB\xC2\x0FoR\xC0\xAB\x9F\xFE\xB3\xE6[D@
Forest Hills Greenmarket,Yes,true,true,Queens Blvd. & 70th Ave.,Queens,40.722054,-73.847155,\x00\x00\x00\x00\x00\x00\x00\x00\x00\x00\x00\x00\x01\x00\x00\x00%\xE9\x9A\xC97vR\xC0\x17\xF9\xF5Cl\x5CD@
Jackson Heights Greenmarket,Yes,true,true,34th Ave. & 79th St.,Queens,40.753607,-73.887739,\x00\x00\x00\x00\x00\x00\x00\x00\x00\x00\x00\x00\x01\x00\x00\x00\x8F\x18=\xB7\xD0xR\xC0\xB2\x84\xB51v`D@
Children's Aid Society Go!Healthy Food Box + Famstand - Goodhue Center,Yes,true,false,304 Prospect Ave.,Staten Island,40.638936,-74.097966,\x00\x00\x00\x00\x00\x00\x00\x00\x00\x00\x00\x00\x01\x00\x00\x00\xAE\x87/\x13E\x86R\xC0Y\x1E\xA4\xA7\xC8QD@
Inwood Park Greenmarket,Yes,true,true,Isham St bet Seaman Ave. & Cooper St.,Manhattan,40.869001,-73.920896,\x00\x00\x00\x00\x00\x00\x00\x00\x00\x00\x00\x00\x01\x00\x00\x00\x1A\xC1\xC6\xF5\xEFzR\xC0}\x98\xBDl;oD@
Gouverneur Health Farmstand,Yes,true,false,Madison St. bet Clinton & Jefferson Sts.,Manhattan,40.712905,-73.986928,\x00\x00\x00\x00\x00\x00\x00\x00\x00\x00\x00\x00\x01\x00\x00\x00n\xE0\x0E\xD4)\x7FR\xC0\xD1\x13\x96x@[D@
82nd Street Greenmarket,Yes,true,true,E. 82nd St. bet 1st & York Aves,Manhattan,40.774292,-73.951262,\x00\x00\x00\x00\x00\x00\x00\x00\x00\x00\x00\x00\x01\x00\x00\x00]\xFB\x02z\xE1|R\xC0\xF8\xC6\x10\x00\x1CcD@
Harvest Home Harlem Hospital Farmers Market,Yes,true,false,W. 137th St. & Lenox Ave.,Manhattan,40.815403,-73.93991,\x00\x00\x00\x00\x00\x00\x00\x00\x00\x00\x00\x00\x01\x00\x00\x00\xBC\xCBE|\x27|R\xC0\xB8\x07! _hD@
Tucker Square Greenmarket,Yes,true,true,Columbus & 66th St.,Manhattan,40.773709,-73.98196,\x00\x00\x00\x00\x00\x00\x00\x00\x00\x00\x00\x00\x01\x00\x00\x00\xBB~\xC1n\xD8~R\xC0{\xCF\x81\xE5\x08cD@
Project EATS & St. Barnabas Hospital Farm Stand,Yes,true,false,4507 3rd Ave.,Bronx,40.853237,-73.891742,\x00\x00\x00\x00\x00\x00\x00\x00\x00\x00\x00\x00\x01\x00\x00\x00\x0E\x9E\x09M\x12yR\xC0\x5C^\xB9\xDE6mD@
Morrisania Farmstand,Yes,true,false,169th St. & Boston Rd. (at McKinley Square),Bronx,40.83118,-73.900545,\x00\x00\x00\x00\x00\x00\x00\x00\x00\x00\x00\x00\x01\x00\x00\x00\xE2\xE4~\x87\xA2yR\xC0n\x8B2\x1BdjD@
Children's Aid Go!Healthy Food Box + Farmstand - CS211,Yes,true,false,1919 Prospect Ave.,Bronx,40.843546,-73.889755,\x00\x00\x00\x00\x00\x00\x00\x00\x00\x00\x00\x00\x01\x00\x00\x00\xF5\x9C\xF4\xBE\xF1xR\xC0\xF8U\xB9P\xF9kD@
Eastchester Farmstand,Yes,true,false,1250 E. 229th St.,Bronx,40.88372,-73.842046,\x00\x00\x00\x00\x00\x00\x00\x00\x00\x00\x00\x00\x01\x00\x00\x00\x91\xEE\xE7\x14\xE4uR\xC0\x1Ai\xA9\xBC\x1DqD@
La Familia Verde Farmers Market,Yes,true,false,E. Tremont Ave. bet Arthur Ave. & LaFontaine Ave.,Bronx,40.846448,-73.893563,\x00\x00\x00\x00\x00\x00\x00\x00\x00\x00\x00\x00\x01\x00\x00\x00\x9Az\xDD\x220yR\xC0\xDF\xE1vhXlD@
Riverdale Y Sunday Farmers Market,Yes,true,true,4545 Independence Ave.,Bronx,40.891762,-73.912208,\x00\x00\x00\x00\x00\x00\x00\x00\x00\x00\x00\x00\x01\x00\x00\x00\x93\xC9\xA9\x9DazR\xC0e\xE8\xD8A%rD@
7th Ave Sunset Park Greenmarket,Yes,true,true,7th Ave. & 44th St.,Brooklyn,40.645841,-74.002402,\x00\x00\x00\x00\x00\x00\x00\x00\x00\x00\x00\x00\x01\x00\x00\x00{\xDC\xB7Z\x27\x80R\xC0;\xB5\xFA\xEA\xAARD@
Brownsville Pitkin Farmstand,Yes,true,false,Pitkin Ave. bet Thomas Boyland and Amboy St.,Brooklyn,40.669234,-73.913698,\x00\x00\x00\x00\x00\x00\x00\x00\x00\x00\x00\x00\x01\x00\x00\x00\xEB\x1A-\x07zzR\xC0\x88\xAF\xAFu\xA9UD@
Wyckoff House Museum Farmstand,Yes,true,false,5816 Clarendon Road,Brooklyn,40.64497,-73.920914,\x00\x00\x00\x00\x00\x00\x00\x00\x00\x00\x00\x00\x01\x00\x00\x00m\x1BFA\xF0zR\xC0[s\x80`\x8ERD@
Park Slope's Down to Earth Farmers Market,Yes,true,true,4th St. & 5th Ave.,Brooklyn,40.672194,-73.983785,\x00\x00\x00\x00\x00\x00\x00\x00\x00\x00\x00\x00\x01\x00\x00\x00\xE7R\x5CU\xF6~R\xC0\xA0H\xF7s\x0AVD@
Bartel-Pritchard Square Greenmarket,Yes,true,true,Prospect Park W. at 15th St.,Brooklyn,40.661354,-73.96968,\x00\x00\x00\x00\x00\x00\x00\x00\x00\x00\x00\x00\x01\x00\x00\x00u\xE5\xB3<\x0F~R\xC0\x17\x8At?\xA7TD@
Brooklyn Grange Farm Stand,Yes,true,false,850 3rd Ave. (Roof),Brooklyn,40.658518,-74.003327,\x00\x00\x00\x00\x00\x00\x00\x00\x00\x00\x00\x00\x01\x00\x00\x00g\x0Cs\x826\x80R\xC0\xE6\xE9\x5CQJTD@
Flushing Greenmarket,Yes,true,false,Sanford Ave. & Union St. (Bowne Playground),Queens,40.757731,-73.824852,\x00\x00\x00\x00\x00\x00\x00\x00\x00\x00\x00\x00\x01\x00\x00\x00\x93\x02\x0B`\xCAtR\xC0+\x15TT\xFD`D@
Forest Park Farmstand,Yes,true,false,Park Lane South & Myrtle Ave. (My Buddy Statue Plaza),Queens,40.701192,-73.841597,\x00\x00\x00\x00\x00\x00\x00\x00\x00\x00\x00\x00\x01\x00\x00\x00Y\xDA\xA9\xB9\xDCuR\xC0\xC1\x1B\xD2\xA8\xC0YD@
Socrates Sculpture Park,Yes,true,false,32-01 Vernon Blvd.,Queens,40.767634,-73.936314,\x00\x00\x00\x00\x00\x00\x00\x00\x00\x00\x00\x00\x01\x00\x00\x00]2\x8E\x91\xEC{R\xC0\x1C\xA6\xB6\xD4AbD@
Harvest Home Lenox Avenue Farm Stand,Yes,true,false,Lenox Ave. bet. W. 117 & 118 Sts.,Manhattan,40.802699,-73.949186,\x00\x00\x00\x00\x00\x00\x00\x00\x00\x00\x00\x00\x01\x00\x00\x00\x8C\xF4\xA2v\xBF|R\xC0\x17\xC4@\xD7\xBEfD@
Children's Aid  Go!Healthy Food Box + Farmstand - Milbank Center,Yes,true,false,14-32 W. 118th St.,Manhattan,40.802317,-73.946351,\x00\x00\x00\x00\x00\x00\x00\x00\x00\x00\x00\x00\x01\x00\x00\x00]\xE2\xC8\x03\x91|R\xC0/\x03\xCER\xB2fD@
Chelsea's Down to Earth Farmers Market,Yes,true,false,W. 23rd St. bet 8th & 9th Aves.,Manhattan,40.745293,-73.998488,\x00\x00\x00\x00\x00\x00\x00\x00\x00\x00\x00\x00\x01\x00\x00\x00\xB3\x5C6:\xE7\x7FR\xC0\x07x\xD2\xC2e_D@
Lower East Side Farmstand,Yes,true,false,Grand St. bet Pitt and Willett Sts. (outside of Abrons Arts Center),Manhattan,40.71521,-73.984258,\x00\x00\x00\x00\x00\x00\x00\x00\x00\x00\x00\x00\x01\x00\x00\x00\xE34D\x15\xFE~R\xC0\xD7\xE2S\x00\x8C[D@
Harvest Home Hunts Point Farm Stand,Yes,true,false,Southern Blvd bet Barretto & Tiffany Sts. (Luis Suarez Memorial Park),Bronx,40.81894,-73.893492,\x00\x00\x00\x00\x00\x00\x00\x00\x00\x00\x00\x00\x01\x00\x00\x005\xCF\x11\xF9.yR\xC0p\xB1\xA2\x06\xD3hD@
The Market at Preston,Yes,false,false,2780 Schurz Ave. (Preston High School),Bronx,40.814256,-73.819339,\x00\x00\x00\x00\x00\x00\x00\x00\x00\x00\x00\x00\x01\x00\x00\x00\x97U\xD8\x0CptR\xC0/Ie\x8A9hD@
Seeds in the Middle - Flatbush - Hillel Plaza Farm Stand,Yes,true,false,Flatbush/Nostrand Triangle,Brooklyn,40.63262,-73.947439,\x00\x00\x00\x00\x00\x00\x00\x00\x00\x00\x00\x00\x01\x00\x00\x00\x1E\xFD/\xD7\xA2|R\xC0\xD4e1\xB1\xF9PD@
Seeds in the Middle - Flabush - Ditmas Park Farm Stand,Yes,true,false,330 Rugby Rd.,Brooklyn,40.641937,-73.965523,\x00\x00\x00\x00\x00\x00\x00\x00\x00\x00\x00\x00\x01\x00\x00\x00K\x22\xFB \xCB}R\xC0\xD4\x8B\xDA\xFD*RD@
McCarren Park Greenmarket,Yes,true,true,N. 12th bet Union & Driggs,Brooklyn,40.719219,-73.952479,\x00\x00\x00\x00\x00\x00\x00\x00\x00\x00\x00\x00\x01\x00\x00\x00\x1D\xC8zj\xF5|R\xC0\xB8\xD4A^\x0F\x5CD@
Bensonhurst Greenmarket,Yes,true,false,18th Ave. bet 81st & 82nd Sts.,Brooklyn,40.609588,-73.999677,\x00\x00\x00\x00\x00\x00\x00\x00\x00\x00\x00\x00\x01\x00\x00\x00\x0Fd=\xB5\xFA\x7FR\xC0^\x04\xC6\xFA\x06ND@
4th Ave Sunset Park Greenmarket,Yes,true,false,4th Ave. 60th St.,Brooklyn,40.647975,-74.003744,\x00\x00\x00\x00\x00\x00\x00\x00\x00\x00\x00\x00\x01\x00\x00\x00\x99cyW=\x80R\xC0\x15\xD0D\xD8\xF0RD@
People in Need Farmstand,yes,false,true,114 Beverly Road,Brooklyn,40.642934,-73.978827,\x00\x00\x00\x00\x00\x00\x00\x00\x00\x00\x00\x00\x01\x00\x00\x00F\x5C\x00\x1A\xA5~R\xC0D\xBEK\xA9KRD@
Myrtle-Wyckoff Greenmarket,Yes,true,false,Wyckoff bet Gates & Myrtle Aves,Queens,40.699798,-73.911523,\x00\x00\x00\x00\x00\x00\x00\x00\x00\x00\x00\x00\x01\x00\x00\x00Q\xA3\x90dVzR\xC05\xE7\x19\xFB\x92YD@
Sunnyside Greenmarket,Yes,true,true,Skillman Ave. & 43rd St.,Queens,40.74701,-73.92173,\x00\x00\x00\x00\x00\x00\x00\x00\x00\x00\x00\x00\x01\x00\x00\x00~o\xD3\x9F\xFDzR\xC0z\xE4\x0F\x06\x9E_D@
Queens Farm - Queens Borough Hall,Yes,true,false,120-55 Queens Blvd.,Queens,40.713318,-73.82858,\x00\x00\x00\x00\x00\x00\x00\x00\x00\x00\x00\x00\x01\x00\x00\x00\xA9\x87ht\x07uR\xC0\xF7\xD2\x14\x01N[D@
St. Albans Farmers Market,TBD,false,false,St. Albans Long Island Railroad Commuter Parking Lot - Linden Blvd. bet 180th & Newburg Sts.,Queens,40.69225,-73.766682,\x00\x00\x00\x00\x00\x00\x00\x00\x00\x00\x00\x00\x01\x00\x00\x00\xA4\x1BaQ\x11qR\xC0\xF7S\xE3\xA5\x9BXD@
Heritage Farm Stand (Gazebo Road),Yes,true,false,1000 Richmond Terrace (Gazebo Road),Staten Island,40.645075,-74.104753,\x00\x00\x00\x00\x00\x00\x00\x00\x00\x00\x00\x00\x01\x00\x00\x00\x1BJ\xEDE\xB4\x86R\xC0\xCD;N\xD1\x91RD@
Harvest Home East Harlem Farmers Market,Yes,true,false,E. 104th St. & 3rd Ave.,Manhattan,40.7903,-73.945635,\x00\x00\x00\x00\x00\x00\x00\x00\x00\x00\x00\x00\x01\x00\x00\x00\xFD\xBC\xA9H\x85|R\xC0\xB0\x03\xE7\x8C(eD@
Fulton Stall Market (indoor farmers market),Yes,true,true,91 South St.,Manhattan,40.705865,-74.003769,\x00\x00\x00\x00\x00\x00\x00\x00\x00\x00\x00\x00\x01\x00\x00\x00F\xEFT\xC0=\x80R\xC0\x0D2\xC9\xC8YZD@
94th Street Greenmarket,Yes,true,false,E. 94th St. & 1st Ave.,Manhattan,40.781968,-73.945267,\x00\x00\x00\x00\x00\x00\x00\x00\x00\x00\x00\x00\x01\x00\x00\x00<\xBF(A\x7F|R\xC0`B\x05\x87\x17dD@
Two Bridges Youth Market,Yes,true,false,50 Madison St.,Manhattan,40.711958,-73.997825,\x00\x00\x00\x00\x00\x00\x00\x00\x00\x00\x00\x00\x01\x00\x00\x00f\x88c]\xDC\x7FR\xC0\x13\x10\x93p![D@
Harvest Home Metropolitan Hospital Farmers Market,Yes,true,false,E. 97th St. & 2nd Ave.,Manhattan,40.784943,-73.946589,\x00\x00\x00\x00\x00\x00\x00\x00\x00\x00\x00\x00\x01\x00\x00\x007p\x07\xEA\x94|R\xC0\xAF\x1C!\x03ydD@
Project EATS Farm Stand at Essex Crossing,Yes,true,false,115 Delancey St.,Manhattan,40.719322,-73.987817,\x00\x00\x00\x00\x00\x00\x00\x00\x00\x00\x00\x00\x01\x00\x00\x00\xB4[\xCBd8\x7FR\xC0\x8A\xA5H\xBE\x12\x5CD@
Bronx Park East Farmers Market,Yes,true,false,2222 Bronx Park E. (near Bradley Playground),Bronx,40.851713,-73.867786,\x00\x00\x00\x00\x00\x00\x00\x00\x00\x00\x00\x00\x01\x00\x00\x00N{J\xCE\x89wR\xC0\xFDI|\xEE\x04mD@
La Familia Verde Farmers Market / Highbridge Farmers Market,Yes,true,false,1430 Plimpton Ave.,Bronx,40.843627,-73.922243,\x00\x00\x00\x00\x00\x00\x00\x00\x00\x00\x00\x00\x01\x00\x00\x00\xC1\xFD\x80\x07\x06{R\xC0\xE2\x823\xF8\xFBkD@
Riverdale Neighborhood House,Yes,true,false,5521 Mosholu Ave.,Bronx,40.903039,-73.90375,\x00\x00\x00\x00\x00\x00\x00\x00\x00\x00\x00\x00\x01\x00\x00\x00\xA4p=\x0A\xD7yR\xC0\x9C\x01.\xC8\x96sD@
Eastern Parkway Farm Stand,TBD,false,false,1420 Eastern Parkway,Brooklyn,40.668787,-73.921582,\x00\x00\x00\x00\x00\x00\x00\x00\x00\x00\x00\x00\x01\x00\x00\x00D\xA5\x113\xFBzR\xC0\xB8~\xFA\xCF\x9AUD@
Domino Park Greenmarket,Yes,true,false,River St. bet S 1st St. and S. 3rd St.,Brooklyn,40.715385,-73.967441,\x00\x00\x00\x00\x00\x00\x00\x00\x00\x00\x00\x00\x01\x00\x00\x00\xCF\xF3\xA7\x8D\xEA}R\xC0F\x86U\xBC\x91[D@
RiseBoro Farmers Market at Maria Hernandez Park,Yes,true,false,Knickerbocker Ave. bet Sudyam St. & Starr St.,Brooklyn,40.702811,-73.92539,\x00\x00\x00\x00\x00\x00\x00\x00\x00\x00\x00\x00\x01\x00\x00\x00\xE8\x82\xFA\x969{R\xC0q\x22\xFA\xB5\xF5YD@
Woodhull Hospital Farmstand,Yes,true,false,Broadway & Graham Ave.,Brooklyn,40.701022,-73.942202,\x00\x00\x00\x00\x00\x00\x00\x00\x00\x00\x00\x00\x01\x00\x00\x00s\x0E\x9E\x09M|R\xC0d\xE3\xC1\x16\xBBYD@
Harvest Home Brower Park Farm Stand,Yes,true,false,Brooklyn Ave. & Prospect Place,Brooklyn,40.674,-73.944544,\x00\x00\x00\x00\x00\x00\x00\x00\x00\x00\x00\x00\x01\x00\x00\x00\x83h\xADhs|R\xC0\x85\xC0\xCA\xA1EVD@
Seeds in the Middle - Brownsville I.S. 392 Farm Stand,Yes,true,false,104 Sutter Ave.,Brooklyn,40.665965,-73.918107,\x00\x00\x00\x00\x00\x00\x00\x00\x00\x00\x00\x00\x01\x00\x00\x00\xA3\xCE\xDCC\xC2zR\xC0\xEB\xA3SW>UD@
Urban Oasis,No,false,false,681 Clarkson Ave.,Brooklyn,40.657269,-73.934066,\x00\x00\x00\x00\x00\x00\x00\x00\x00\x00\x00\x00\x01\x00\x00\x00\x8E\x93\xC2\xBC\xC7{R\xC0Y\xD6\xFDc!TD@
Seeds in the Middle - Crown Heights - Clara Barton HS Farm Stand,Yes,true,false,901 Classon Ave.,Brooklyn,40.669567,-73.961962,\x00\x00\x00\x00\x00\x00\x00\x00\x00\x00\x00\x00\x01\x00\x00\x00\xAA\x7F\x10\xC9\x90}R\xC0\x8C\xBD\x17_\xB4UD@
Black Radish Farmers Market,Yes,true,false,12020 Flatlands Ave.,Brooklyn,40.651146,-73.888606,\x00\x00\x00\x00\x00\x00\x00\x00\x00\x00\x00\x00\x01\x00\x00\x00\xE1A\xB3\xEB\xDExR\xC0\xEBu\x8B\xC0XSD@
PS 11 Farm Market,No,false,false,320 W. 21st St.,Manhattan,40.744349,-74.000253,\x00\x00\x00\x00\x00\x00\x00\x00\x00\x00\x00\x00\x01\x00\x00\x00u\xAE(%\x04\x80R\xC0\xBC\xE7\xF9\xD3F_D@
Uptown Good Food Farm Stand,Yes,true,false,330 St. Nicholas Ave. (St. Nicholas Miracle Garden),Manhattan,40.81172,-73.951795,\x00\x00\x00\x00\x00\x00\x00\x00\x00\x00\x00\x00\x01\x00\x00\x00\xC4_\x935\xEA|R\xC0(\xC1\xE2p\xE6gD@
Abingdon Square Greenmarket,Yes,true,true,Hudson St. & W 12th St.,Manhattan,40.737553,-74.005687,\x00\x00\x00\x00\x00\x00\x00\x00\x00\x00\x00\x00\x01\x00\x00\x00\xCA\xC0\x01-]\x80R\xC0\x87\x08\xFF\x22h^D@
Market in the Heights at CCNY,Yes,true,false,138th St. & Convent Ave.,Manhattan,40.819407,-73.950171,\x00\x00\x00\x00\x00\x00\x00\x00\x00\x00\x00\x00\x01\x00\x00\x00\xE3\xA6\x06\x9A\xCF|R\xC0\x88\x8E\x1DT\xE2hD@
Grass Roots Farmers' Market,Yes,true,false,"W. 145th St. bet Edgecombe & Bradhurst Aves, at Jackie Robinson Park",Manhattan,40.823647,-73.943844,\x00\x00\x00\x00\x00\x00\x00\x00\x00\x00\x00\x00\x01\x00\x00\x00\xA7!\xAA\xF0g|R\xC0j9\xD0CmiD@
Bro Sis Green Youth Market,Yes,true,false,"Amsterdam bet W. 143rd & 144th Sts., at Johnny Hartman Plaza",Manhattan,40.82394,-73.948552,\x00\x00\x00\x00\x00\x00\x00\x00\x00\x00\x00\x00\x01\x00\x00\x00\x8C\xA3r\x13\xB5|R\xC0\xE1\xEE\xAC\xDDviD@
Columbia Greenmarket,Yes,true,true,Broadway & 114th St.,Manhattan,40.807145,-73.964265,\x00\x00\x00\x00\x00\x00\x00\x00\x00\x00\x00\x00\x01\x00\x00\x00[\xEB\x8B\x84\xB6}R\xC0\xA1\x10\x01\x87PgD@
Morningside Park's Down to Earth Farmers Market,Yes,true,true,W. 110th St. & Manhattan Ave.,Manhattan,40.801155,-73.959647,\x00\x00\x00\x00\x00\x00\x00\x00\x00\x00\x00\x00\x01\x00\x00\x00\x17-@\xDBj}R\xC0r\x03>?\x8CfD@
JBOLC Garden Community Farmers Market,Yes,true,false,Sedgwick Ave. & Goulden Ave.,Bronx,40.882647,-73.886562,\x00\x00\x00\x00\x00\x00\x00\x00\x00\x00\x00\x00\x01\x00\x00\x00\x16\xF8\x8An\xBDxR\xC0\xCFt\xAF\x93\xFApD@
Carroll Gardens Greenmarket,Yes,true,true,Smith & Carroll Sts.,Brooklyn,40.680761,-73.99552,\x00\x00\x00\x00\x00\x00\x00\x00\x00\x00\x00\x00\x01\x00\x00\x00\xE4\xA0\x84\x99\xB6\x7FR\xC05\xB2+-#WD@
Fresh Vibes Market at Blue Cross Blue Shield @ Church Avenue,Yes,true,false,2009 Church Ave.,Brooklyn,40.650241,-73.960632,\x00\x00\x00\x00\x00\x00\x00\x00\x00\x00\x00\x00\x01\x00\x00\x00n\xDF\xA3\xFEz}R\xC0X\xC2\xDA\x18;SD@
Cortelyou Greenmarket,Yes,true,true,Cortelyou bet Rugby & Argyle,Brooklyn,40.64051,-73.966021,\x00\x00\x00\x00\x00\x00\x00\x00\x00\x00\x00\x00\x01\x00\x00\x00\xF3\x8F\xBEI\xD3}R\xC0iaO;\xFCQD@
East New York Farmers Market,Yes,true,false,Schenck Ave. bet New Lots & Livonia Aves,Brooklyn,40.665296,-73.886557,\x00\x00\x00\x00\x00\x00\x00\x00\x00\x00\x00\x00\x01\x00\x00\x00\x8DB\x92Y\xBDxR\xC0n\x14Yk(UD@
McGolrick Park's Down to Earth Farmers Market,Yes,true,false,Russell St. & Nassau Ave. (center of park),Brooklyn,40.725617,-73.944497,\x00\x00\x00\x00\x00\x00\x00\x00\x00\x00\x00\x00\x01\x00\x00\x00\xE3\x8A\x8B\xA3r|R\xC0\xF75\x92\x04\xE1\x5CD@
East New York Farmers Stand I,Yes,true,false,Euclid & Pitkin Aves.,Brooklyn,40.675404,-73.871914,"\x00\x00\x00\x00\x00\x00\x00\x00\x00\x00\x00\x00\x01\x00\x00\x00,\xBB`p\xCDwR\xC05\xCBe\xA3sVD@"
Fresh Vibes Market at Canarsie Pier,Yes,true,false,Canarsie Veteran's Circle,Brooklyn,40.6289,-73.8842,\x00\x00\x00\x00\x00\x00\x00\x00\x00\x00\x00\x00\x01\x00\x00\x00\xE4\xC7\x98\xBB\x96xR\xC0):\x92\xCB\x7FPD@
Seeds in the Middle - Ocean Hill - Brownsville Farm Stand,Yes,true,false,2163 Dean St.,Brooklyn,40.675024,-73.915778,\x00\x00\x00\x00\x00\x00\x00\x00\x00\x00\x00\x00\x01\x00\x00\x00]\x19T\x1B\x9CzR\xC0\xEF\x01\xBA/gVD@
Perez Farm Stand,Yes,true,false,"134-20 Jamaica Ave., by the Axel Building",Queens,40.70236,-73.818531,\x00\x00\x00\x00\x00\x00\x00\x00\x00\x00\x00\x00\x01\x00\x00\x00\xC7\xF0\xD8\xCFbtR\xC0^\x02\xB7\xEE\xE6YD@
Rockaway Market @ Beach 60th,No,false,false,Rockaway Freeway & Beach 60th St.,Queens,40.592902,-73.789051,\x00\x00\x00\x00\x00\x00\x00\x00\x00\x00\x00\x00\x01\x00\x00\x00\x12\xF8\xC3\xCF\x7FrR\xC0\xD4\xDDu6\xE4KD@
Cunningham Park's Down to Earth Farmers Market,Yes,true,false,Union Turnpike & 196th Place,Queens,40.731082,-73.773997,\x00\x00\x00\x00\x00\x00\x00\x00\x00\x00\x00\x00\x01\x00\x00\x00\xEF\x8C\xB6*\x89qR\xC0\xDCXP\x18\x94]D@
PS 57 Farmstand,Yes,true,false,115th St. & 3rd Ave. (SW corner),Manhattan,40.797577,-73.94128,\x00\x00\x00\x00\x00\x00\x00\x00\x00\x00\x00\x00\x01\x00\x00\x00@\x18x\xEE=|R\xC0[\x85\xCD\x00\x17fD@
Union Square Greenmarket,Yes,true,true,Union Square W. & 17th St.,Manhattan,40.737133,-73.990329,\x00\x00\x00\x00\x00\x00\x00\x00\x00\x00\x00\x00\x01\x00\x00\x00\xF2\xD1\xE2\x8Ca\x7FR\xC0\xB6\xE6\xC7_Z^D@
Stuyvesant Town Greenmarket,Yes,true,false,South end of Stuyvesant Town Oval,Manhattan,40.731498,-73.97818,\x00\x00\x00\x00\x00\x00\x00\x00\x00\x00\x00\x00\x01\x00\x00\x00{fI\x80\x9A~R\xC0r\x8B\xF9\xB9\xA1]D@
Bowling Green Greenmarket,Yes,true,false,Broadway at Battery Place,Manhattan,40.704549,-74.01429,\x00\x00\x00\x00\x00\x00\x00\x00\x00\x00\x00\x00\x01\x00\x00\x00;\xAA\x9A \xEA\x80R\xC0\xFB\xB6`\xA9.ZD@
Mount Sinai Greenmarket,Yes,true,false,Madison Ave. & 99th St.,Manhattan,40.789386,-73.952595,\x00\x00\x00\x00\x00\x00\x00\x00\x00\x00\x00\x00\x01\x00\x00\x00R\xD5\x04Q\xF7|R\xC0\xCA\xF5\xB6\x99\x0AeD@
79th Street Greenmarket,Yes,true,true,79th St. & Columbus Ave.,Manhattan,40.782295,-73.975244,\x00\x00\x00\x00\x00\x00\x00\x00\x00\x00\x00\x00\x01\x00\x00\x00\xB2g\xCFej~R\xC0\x85i\x18>\x22dD@
Bissel Gardens Farmers Market,Yes,true,false,Baychester Ave. & E. 241st St.,Bronx,40.90152,-73.846937,\x00\x00\x00\x00\x00\x00\x00\x00\x00\x00\x00\x00\x01\x00\x00\x00n1?74vR\xC0PX\xE2\x01esD@
Harvest Home St. Mary's Park Farm Stand,Yes,true,false,E. 149th St. & Eagle Ave. (St. Mary's Park),Bronx,40.8139,-73.911812,\x00\x00\x00\x00\x00\x00\x00\x00\x00\x00\x00\x00\x01\x00\x00\x00l\x06\xB8 [zR\xC0q\x1B\x0D\xE0-hD@
Poe Park Greenmarket,Yes,true,false,E. 192nd St. bet Grand Concourse & Valentine,Bronx,40.86431,-73.895379,\x00\x00\x00\x00\x00\x00\x00\x00\x00\x00\x00\x00\x01\x00\x00\x00\x9D\xA1\xB8\xE3MyR\xC0\x8A\xCD\xC7\xB5\xA1nD@
BronxWorks Farm Stand,Yes,true,false,1130 Grand Concourse,Bronx,40.832759,-73.919296,\x00\x00\x00\x00\x00\x00\x00\x00\x00\x00\x00\x00\x01\x00\x00\x00\xFF\xD5\xE3\xBE\xD5zR\xC0\x8E9\xCF\xD8\x97jD@
Harvest Home Mt. Eden Malls Farmers Market,Yes,true,false,Mt. Eden & Morris Aves (Claremont Park),Bronx,40.8429,-73.909558,"\x00\x00\x00\x00\x00\x00\x00\x00\x00\x00\x00\x00\x01\x00\x00\x00,\xF4\xC126zR\xC03\xE6\xAE%\xE4kD@"
Mott Haven Farm Stand,Yes,true,false,541 E. 139th St. (Padre Plaza Garden),Bronx,40.807883,-73.917885,\x00\x00\x00\x00\x00\x00\x00\x00\x00\x00\x00\x00\x01\x00\x00\x00K\x1F\xBA\xA0\xBEzR\xC0G\xFF\xCB\xB5hgD@
Kingsbridge-Riverdale Farmers' Market,Yes,false,false,260 W. 231st St.,Bronx,40.880038,-73.907005,\x00\x00\x00\x00\x00\x00\x00\x00\x00\x00\x00\x00\x01\x00\x00\x00\xBE\x13\xB3^\x0CzR\xC0^\x9E\xCE\x15\xA5pD@
Fresh Vibes Market at Emblem Health,Yes,true,false,101 Pennsylvania Ave.,Brooklyn,40.675209,-73.896508,\x00\x00\x00\x00\x00\x00\x00\x00\x00\x00\x00\x00\x01\x00\x00\x00\x8D&\x17c`yR\xC0\x83{\x9E?mVD@
Brooklyn Borough Hall Greenmarket,Yes,true,true,Montague & Court Sts.,Brooklyn,40.693722,-73.990455,\x00\x00\x00\x00\x00\x00\x00\x00\x00\x00\x00\x00\x01\x00\x00\x008J^\x9Dc\x7FR\xC0\x05B\xEB\xE1\xCBXD@
Edible Schoolyard NYC's Farm Stand at PS 216,Yes,true,false,350 Ave. X,Brooklyn,40.590564,-73.969964,\x00\x00\x00\x00\x00\x00\x00\x00\x00\x00\x00\x00\x01\x00\x00\x00\x08\x93\xE2\xE3\x13~R\xC0\xF4\x18\xE5\x99\x97KD@
Cypress Hills Farmstand,Yes,true,false,Fulton St. bet Richmond and Logan Sts. (in front of Cypress Hills Senior Center),Brooklyn,40.682391,-73.913554,\x00\x00\x00\x00\x00\x00\x00\x00\x00\x00\x00\x00\x01\x00\x00\x00RH2\xABwzR\xC0\xDB\x0A\x9A\x96XWD@
Fort Greene Greenmarket,Yes,true,true,Washington Park & Dekalb Ave.,Brooklyn,40.691457,-73.973421,\x00\x00\x00\x00\x00\x00\x00\x00\x00\x00\x00\x00\x01\x00\x00\x00V\x0F\x98\x87L~R\xC0\x8F\xCB\xB8\xA9\x81XD@
Harvest Home Utica Avenue Farmers Market,Yes,true,false,Eastern Parkway bet Utica & Rochester Aves,Brooklyn,40.668754,-73.930136,\x00\x00\x00\x00\x00\x00\x00\x00\x00\x00\x00\x00\x01\x00\x00\x00D5%Y\x87{R\xC0\xDC\x88\x27\xBB\x99UD@
Grand Army Plaza Greenmarket,Yes,true,true,Grand Army Plaza,Brooklyn,40.672525,-73.969799,"\x00\x00\x00\x00\x00\x00\x00\x00\x00\x00\x00\x00\x01\x00\x00\x00b,\xD3/\x11~R\xC0\x07_\x98L\x15VD@"
Queens Farm @ Jamaica Hospital,Yes,true,false,134-20 Jamaica Ave.,Queens,40.70236,-73.818531,\x00\x00\x00\x00\x00\x00\x00\x00\x00\x00\x00\x00\x01\x00\x00\x00\xC7\xF0\xD8\xCFbtR\xC0^\x02\xB7\xEE\xE6YD@
Sovereign Markets,Yes,false,false,Laurelton Long Island Railroad Station Commuter Parking Lot - Prospect Ct. bet 224th & 225th Sts.,Queens,40.668389,-73.751972,\x00\x00\x00\x00\x00\x00\x00\x00\x00\x00\x00\x00\x01\x00\x00\x00~\xE0*O pR\xC0\xC8\x00P\xC5\x8DUD@
Staten Island Mall Greenmarket,Yes,true,false,Marsh Ave. & Ring Road,Staten Island,40.583804,-74.161245,\x00\x00\x00\x00\x00\x00\x00\x00\x00\x00\x00\x00\x01\x00\x00\x00/i\x8C\xD6Q\x8AR\xC0\x11\xA3\xE7\x16\xBAJD@
St. George Greenmarket,Yes,true,true,St Marks Pl. & Hyatt St.,Staten Island,40.641586,-74.0779,\x00\x00\x00\x00\x00\x00\x00\x00\x00\x00\x00\x00\x01\x00\x00\x00\xF0\x16HP\xFC\x84R\xC0$\xC9s}\x1FRD@
Tompkins Square Greenmarket,Yes,true,true,7th St. & Ave. A,Manhattan,40.726054,-73.983534,\x00\x00\x00\x00\x00\x00\x00\x00\x00\x00\x00\x00\x01\x00\x00\x00C \x978\xF2~R\xC0\xA5\x90dV\xEF\x5CD@
175th Street Greenmarket,Yes,true,false,W. 175th St. bet. Wadsworth Ave. & Broadway,Manhattan,40.845948,-73.937811,\x00\x00\x00\x00\x00\x00\x00\x00\x00\x00\x00\x00\x01\x00\x00\x00\x0F\xB5m\x18\x05|R\xC0\xEE\x0E)\x06HlD@
Harlem Meer Farmstand,Yes,true,false,Central Park N & Malcom X Blvd,Manhattan,40.798038,-73.95191,\x00\x00\x00\x00\x00\x00\x00\x00\x00\x00\x00\x00\x01\x00\x00\x00\x10\xAF\xEB\x17\xEC|R\xC0\x8D{\xF3\x1B&fD@
NYP Youth Market - Broadway,No,false,false,4781-4783 Broadway,Manhattan,40.865881,-73.926314,\x00\x00\x00\x00\x00\x00\x00\x00\x00\x00\x00\x00\x01\x00\x00\x00\xED\xF4\x83\xBAH{R\xC0)\x9DH0\xD5nD@
170 Farm Stand,Yes,true,false,1406 Townsend Ave.,Bronx,40.840138,-73.916591,\x00\x00\x00\x00\x00\x00\x00\x00\x00\x00\x00\x00\x01\x00\x00\x00\xB53Lm\xA9zR\xC0;\x10Y\xA4\x89kD@
Lincoln Hospital Greenmarket,Yes,true,false,E. 149th St. bet Park & Morris Aves,Bronx,40.818013,-73.925185,\x00\x00\x00\x00\x00\x00\x00\x00\x00\x00\x00\x00\x01\x00\x00\x00\xFCo%;6{R\xC0\xF8Ye\xA6\xB4hD@
Van Cortlandt Park Alliance Amalgamated Housing Youth Farmstand,Yes,true,false,Orloff Ave. & Gale Place,Bronx,40.884532,-73.892172,\x00\x00\x00\x00\x00\x00\x00\x00\x00\x00\x00\x00\x01\x00\x00\x00\x0B\x9A\x96X\x19yR\xC0\xF9!6X8qD@
Bronx Borough Hall Greenmarket,Yes,true,false,161st St. & Grand Concourse,Bronx,40.827335,-73.922911,\x00\x00\x00\x00\x00\x00\x00\x00\x00\x00\x00\x00\x01\x00\x00\x00\x98\x87L\xF9\x10{R\xC0\x08\xEB\xFF\x1C\xE6iD@
Seeds in the Middle East Flatbush Farm Stand 2,Yes,true,false,4801 Ave. D (PS 208),Brooklyn,40.642031,-73.931151,\x00\x00\x00\x00\x00\x00\x00\x00\x00\x00\x00\x00\x01\x00\x00\x00\xD0(]\xFA\x97{R\xC0U\x02b\x12.RD@
Weeksville Farm Stand,Yes,true,false,15 Buffalo Ave.,Brooklyn,40.678508,-73.924628,\x00\x00\x00\x00\x00\x00\x00\x00\x00\x00\x00\x00\x01\x00\x00\x00\xD1=\xEB\x1A-{R\xC0\x87\x09\xA3Y\xD9VD@
Crown Heights Farmstand,Yes,true,true,Nostrand Ave. and Crown St. (NW corner),Brooklyn,40.666472,-73.950807,\x00\x00\x00\x00\x00\x00\x00\x00\x00\x00\x00\x00\x01\x00\x00\x00\xB4s\x9A\x05\xDA|R\xC0\x90\xD9Y\xF4NUD@
Seeds in the Middle Crown Heights Farm Stand,Yes,true,false,750 Classon Ave. (PS 216),Brooklyn,40.6744,-73.960254,\x00\x00\x00\x00\x00\x00\x00\x00\x00\x00\x00\x00\x01\x00\x00\x00\x9Bv1\xCDt}R\xC0\x126<\xBDRVD@
Project EATS Brownsville Farm Stand,Yes,true,false,300 Chester St.,Brooklyn,40.664477,-73.910384,\x00\x00\x00\x00\x00\x00\x00\x00\x00\x00\x00\x00\x01\x00\x00\x00N\xB3@\xBBCzR\xC0\xDC\xF8\x13\x95\x0DUD@
Fresh Vibes Market at Blue Cross Blue Shield @ Knickerbocker Avenue,Yes,true,false,364 Knickerbocker Ave.,Brooklyn,40.70048,-73.921519,\x00\x00\x00\x00\x00\x00\x00\x00\x00\x00\x00\x00\x01\x00\x00\x00!\xE9\xD3*\xFAzR\xC0F\xC0!T\xA9YD@
Isabahlia Farmers Market,Yes,true,false,410 Livonia Ave. (In Front of Powell St. Garden),Brooklyn,40.663532,-73.902236,\x00\x00\x00\x00\x00\x00\x00\x00\x00\x00\x00\x00\x01\x00\x00\x00\x87Q\x10<\xBEyR\xC0\xBA\xEC\xD7\x9D\xEETD@
Hattie Carthan Herbal Apothecary/ Market,Yes,false,false,48 Van Buren St.,Brooklyn,40.690036,-73.943557,\x00\x00\x00\x00\x00\x00\x00\x00\x00\x00\x00\x00\x01\x00\x00\x00\x5C:\xE6<c|R\xC0\x06\x88\x82\x19SXD@
Hattie Carthan Community Market,Yes,false,false,363-365 Clifton Place,Brooklyn,40.689628,-73.946882,\x00\x00\x00\x00\x00\x00\x00\x00\x00\x00\x00\x00\x01\x00\x00\x00\xF3\xCA\xF5\xB6\x99|R\xC0\xF43\xF5\xBAEXD@
Harvest Home Coney Island Hospital Farmers Market,Yes,true,false,Ocean Parkway bet Ave. Z & Shore Parkway,Brooklyn,40.5867,-73.96615,\x00\x00\x00\x00\x00\x00\x00\x00\x00\x00\x00\x00\x01\x00\x00\x00\xF2A\xCFf\xD5}R\xC0\x15HP\xFC\x18KD@
Fresh Vibes Market at the American Beverage Association,Yes,true,false,2010 Fulton St.,Brooklyn,40.678542,-73.917821,\x00\x00\x00\x00\x00\x00\x00\x00\x00\x00\x00\x00\x01\x00\x00\x00@\xA5J\x94\xBDzR\xC01{\xD9v\xDAVD@
Flatbush Junction Farmstand,Yes,true,false,Nostrand & Flatbush Aves,Brooklyn,40.632886,-73.947698,\x00\x00\x00\x00\x00\x00\x00\x00\x00\x00\x00\x00\x01\x00\x00\x00\x04\x1F\x83\x15\xA7|R\xC0Q\x0C\x90h\x02QD@
Ridgewood Farmstand,Yes,true,false,Cypress Ave. bet Myrtle Ave. & Putnam Ave.,Queens,40.700403,-73.90668,\x00\x00\x00\x00\x00\x00\x00\x00\x00\x00\x00\x00\x01\x00\x00\x00\xFC\xFB\x8C\x0B\x07zR\xC0\x9B\x825\xCE\xA6YD@
Corona Greenmarket,Yes,true,false,Roosevelt Ave. & 103rd St.,Queens,40.749869,-73.862726,\x00\x00\x00\x00\x00\x00\x00\x00\x00\x00\x00\x00\x01\x00\x00\x00+\xDA\x1C\xE76wR\xC0b\xA4\x17\xB5\xFB_D@
NYP Youth Market - Queens,No,false,false,73-15 Northern Blvd.,Queens,40.754714,-73.893504,\x00\x00\x00\x00\x00\x00\x00\x00\x00\x00\x00\x00\x01\x00\x00\x00\x17\xB6f+/yR\xC0\xAA\xEA\xE5w\x9A`D@
